{"data" : [
  {
    "suppliers":[
      {"lat": 37.322998, "long": -122.032181, "name": "Supplier #1",  "city":"Coldelf", "value": 293},
      {"lat":39.50250064, "long": -109.23673915, "name": "Supplier #2",  "city":"Tucson", "value": 293},
      {"lat":48.11484768, "long": -92.51444825, "name": "Supplier #3",  "city":"Trujillo Alto", "value": 293},
      {"lat":29.9182411, "long": -108.39680634, "name": "Supplier #4",  "city":"Bearden", "value": 293},
      {"lat":49.9568486, "long": -97.90472229, "name": "Supplier #6",  "city":"Washington Heights", "value": 293},
      {"lat":38.72997859, "long": -84.11219353, "name": "Supplier #7",  "city":"Des Plaines", "value": 293},
      {"lat":50.73833032, "long": -101.51437939, "name": "Supplier #8",  "city":"Garland", "value": 293},
      {"lat":49.75396758, "long": -104.95668203, "name": "Supplier #9",  "city":"Waterloo", "value": 293},
      {"lat":28.23409968, "long": -97.78318015, "name": "Supplier #10",  "city":"Southpark Mall", "value": 293},
      {"lat":47.1240028, "long": -88.17559971, "name": "Supplier #11",  "city":"Timbuktu", "value": 293},
      {"lat":38.79720966, "long": -88.68874866, "name": "Supplier #12",  "city":"Flour Bluff", "value": 293},
      {"lat":34.78103207, "long": -102.90563556, "name": "Supplier #13",  "city":"Palmyra", "value": 293},
      {"lat":40.08012974, "long": -106.41858725, "name": "Supplier #14",  "city":"Ames", "value": 293},
      {"lat":34.74671597, "long": -96.48470964, "name": "Supplier #15",  "city":"Gibraltar", "value": 293},
      {"lat":39.98835983, "long": -105.89872451, "name": "Supplier #16",  "city":"Nampa", "value": 293},
      {"lat":32.23399108, "long": -97.61311575, "name": "Supplier #17",  "city":"Nairobi", "value": 293},
      {"lat":31.80775656, "long": -93.13079895, "name": "Supplier #18",  "city":"Sigma", "value": 293},
      {"lat":41.55116964, "long": -86.394941, "name": "Supplier #19",  "city":"Sheldon", "value": 293},
      {"lat":37.12721106, "long": -80.01549238, "name": "Supplier #20",  "city":"Ottawa", "value": 293},
      {"lat":27.63418381, "long": -104.01396081, "name": "Supplier #21",  "city":"Mackville", "value": 293},
      {"lat":-20.86391048, "long": -54.68276055, "name": "Supplier #22",  "city":"Mission Viejo", "value": 293},
      {"lat":0.16187136, "long": -61.59451056, "name": "Supplier #23",  "city":"Sunnyvale", "value": 293},
      {"lat":-16.2808033, "long": -52.5075302, "name": "Supplier #24",  "city":"Orem", "value": 293},
      {"lat":-14.22926448, "long": -53.47451347, "name": "Supplier #25",  "city":"Inglewood", "value": 293},
      {"lat":0.03483369, "long": -55.62318953, "name": "Supplier #26",  "city":"Sunrise", "value": 293},
      {"lat":-7.53370693, "long": -51.67286413, "name": "Supplier #27",  "city":"Ponce", "value": 293},
      {"lat":0.264888, "long": -56.14168501, "name": "Supplier #28",  "city":"Los Serranos", "value": 293},
      {"lat":-8.48208786, "long": -55.99729839, "name": "Supplier #29",  "city":"Hamilton", "value": 293},
      {"lat":-20.14802224, "long": -49.94023374, "name": "Supplier #30",  "city":"Dayton", "value": 293},
      {"lat":-2.85425454, "long": -67.15501699, "name": "Supplier #32",  "city":"Providence", "value": 293},
      {"lat":1.53675179, "long": -59.04880491, "name": "Supplier #33",  "city":"Santo Domingo", "value": 293},
      {"lat":0.24880335, "long": -60.15527867, "name": "Supplier #34",  "city":"Wilshire Park", "value": 293},
      {"lat":-8.89932057, "long": -48.17229583, "name": "Supplier #36",  "city":"Four Corners", "value": 293},
      {"lat":1.39350634, "long": -52.49923041, "name": "Supplier #37",  "city":"Bern", "value": 293},
      {"lat":-8.51703135, "long": -46.15223241, "name": "Supplier #38",  "city":"Chisinau", "value": 293},
      {"lat":-12.11119553, "long": -49.52819547, "name": "Supplier #39",  "city":"Honolulu", "value": 293},
      {"lat":-19.82691148, "long": -55.16539442, "name": "Supplier #41",  "city":"Bishkek", "value": 293},
      {"lat":25.3977796, "long": 97.21345051, "name": "Supplier #42",  "city":"Astoria", "value": 293},
      {"lat":36.47535794, "long": 102.92880082, "name": "Supplier #43",  "city":"Sawgrass Mills Mal", "value": 293},
      {"lat":48.05293826, "long": 98.68713686, "name": "Supplier #44",  "city":"Alofi", "value": 293},
      {"lat":26.15922483, "long": 96.38050102, "name": "Supplier #45",  "city":"Alta", "value": 293},
      {"lat":42.73964022, "long": 106.47842557, "name": "Supplier #46",  "city":"Back Bay", "value": 293},
      {"lat":44.28391016, "long": 96.57541846, "name": "Supplier #47",  "city":"Port-au-Prince", "value": 293},
      {"lat":32.1074647, "long": 91.64259272, "name": "Supplier #48",  "city":"Richmond", "value": 293},
      {"lat":29.35981331, "long": 93.37341118, "name": "Supplier #49",  "city":"Renton", "value": 293},
      {"lat":31.89071701, "long": 106.70469965, "name": "Supplier #50",  "city":"New Rochelle", "value": 293},
      {"lat":38.90942586, "long": 92.32478523, "name": "Supplier #51",  "city":"San Bernardino", "value": 293},
      {"lat":25.55493909, "long": 89.17619584, "name": "Supplier #52",  "city":"Tokyo", "value": 293},
      {"lat":33.15984257, "long": 107.72177199, "name": "Supplier #53",  "city":"Beaverton", "value": 293},
      {"lat":22.01318726, "long": 101.24760147, "name": "Supplier #54",  "city":"Manoa", "value": 293},
      {"lat":22.16958554, "long": 93.45191316, "name": "Supplier #55",  "city":"Gastonia", "value": 293},
      {"lat":27.65966822, "long": 101.85577309, "name": "Supplier #56",  "city":"Jackson", "value": 293},
      {"lat":25.90909436, "long": 91.91286582, "name": "Supplier #57",  "city":"Mesquite", "value": 293},
      {"lat":25.63311747, "long": 87.58399047, "name": "Supplier #58",  "city":"Richardson", "value": 293},
      {"lat":42.44323814, "long": 105.15448349, "name": "Supplier #59",  "city":"Grafton", "value": 293},
      {"lat":21.23164395, "long": 95.18462931, "name": "Supplier #60",  "city":"Reno", "value": 293},
      {"lat":22.94450882, "long": 99.20976316, "name": "Supplier #61",  "city":"Tucson", "value": 293},
      {"lat":28.93620881, "long": 12.83267198, "name": "Supplier #63",  "city":"Bearden", "value": 293},
      {"lat":24.46781875, "long": 34.23178557, "name": "Supplier #65",  "city":"Washington Heights", "value": 293},
      {"lat":39.12729355, "long": 19.98003495, "name": "Supplier #66",  "city":"Des Plaines", "value": 293},
      {"lat":36.74943138, "long": 34.61028458, "name": "Supplier #68",  "city":"Waterloo", "value": 293},
      {"lat":39.61078732, "long": 36.29381765, "name": "Supplier #69",  "city":"Southpark Mall", "value": 293},
      {"lat":16.35109437, "long": 20.32736636, "name": "Supplier #70",  "city":"Timbuktu", "value": 293},
      {"lat":30.88092816, "long": 24.96397433, "name": "Supplier #71",  "city":"Flour Bluff", "value": 293},
      {"lat":40.91068006, "long": 17.15113254, "name": "Supplier #72",  "city":"Palmyra", "value": 293},
      {"lat":26.69150369, "long": 9.91408673, "name": "Supplier #73",  "city":"Ames", "value": 293},
      {"lat":23.37385853, "long": 32.58125015, "name": "Supplier #75",  "city":"Nampa", "value": 293},
      {"lat":17.13052565, "long": 17.1182369, "name": "Supplier #76",  "city":"Nairobi", "value": 293},
      {"lat":17.62265624, "long": 29.6111666, "name": "Supplier #77",  "city":"Sigma", "value": 293},
      {"lat":21.77301589, "long": 21.08243462, "name": "Supplier #80",  "city":"Mackville", "value": 293},
      {"lat":19.87043693, "long": 15.40694363, "name": "Supplier #81",  "city":"Mission Viejo", "value": 293},
      {"lat":44.87800264, "long": 10.8330245, "name": "Supplier #83",  "city":"Orem", "value": 293},
      {"lat":41.05856972, "long": 11.02522775, "name": "Supplier #84",  "city":"Inglewood", "value": 293},
      {"lat":50.8646969, "long": 12.73677906, "name": "Supplier #86",  "city":"Ponce", "value": 293},
      {"lat":56.31677988, "long": -3.04012178, "name": "Supplier #87",  "city":"Los Serranos", "value": 293},
      {"lat":55.60486438, "long": 22.75973377, "name": "Supplier #88",  "city":"Hamilton", "value": 293},
      {"lat":60.72275933, "long": 6.5669651, "name": "Supplier #89",  "city":"Dayton", "value": 293},
      {"lat":52.46349377, "long": 18.03972954, "name": "Supplier #90",  "city":"Farmington", "value": 293},
      {"lat":56.75161173, "long": 40.52158985, "name": "Supplier #97",  "city":"Chisinau", "value": 293},
      {"lat":45.804732, "long": 21.56570144, "name": "Supplier #98",  "city":"Honolulu", "value": 293},
      {"lat":60.08386493, "long": 17.29481292, "name": "Supplier #99",  "city":"Flagstaff", "value": 293},
      {"lat":47.8099983, "long": 21.08852899, "name": "Supplier #101",  "city":"Brazzaville", "value": 293},
      {"lat":51.75836752, "long": 115.08580458, "name": "Supplier #102",  "city":"Delray Beach", "value": 293},
      {"lat":50.51568678, "long": 98.8337146, "name": "Supplier #103",  "city":"Battery Point", "value": 293},
      {"lat":69.08305419, "long": 113.78227326, "name": "Supplier #104",  "city":"Meriden", "value": 293},
      {"lat":68.83024697, "long": 110.60354876, "name": "Supplier #105",  "city":"Clifton", "value": 293},
      {"lat":70.5562756, "long": 98.30315647, "name": "Supplier #106",  "city":"Harlem", "value": 293},
      {"lat":70.15676441, "long": 113.26068056, "name": "Supplier #107",  "city":"Columbia", "value": 293},
      {"lat":61.52789182, "long": 92.7701364, "name": "Supplier #108",  "city":"Montgomery", "value": 293},
      {"lat":49.44228726, "long": 96.30035648, "name": "Supplier #109",  "city":"Nicosia", "value": 293},
      {"lat":52.55302695, "long": 86.69120966, "name": "Supplier #110",  "city":"Willoughby Spit", "value": 293},
      {"lat":53.4713225, "long": 118.56723447, "name": "Supplier #111",  "city":"Park Heights", "value": 293},
      {"lat":52.36282032, "long": 99.3313009, "name": "Supplier #112",  "city":"Simpson", "value": 293},
      {"lat":51.59354554, "long": 122.12025086, "name": "Supplier #113",  "city":"Chula Vista", "value": 293},
      {"lat":59.5030497, "long": 129.76375876, "name": "Supplier #114",  "city":"Ventura", "value": 293},
      {"lat":50.39561532, "long": 114.66592479, "name": "Supplier #115",  "city":"Carlsbad", "value": 293},
      {"lat":67.8281556, "long": 92.20586382, "name": "Supplier #116",  "city":"Santa Clarita", "value": 293},
      {"lat":50.22673429, "long": 92.3900583, "name": "Supplier #117",  "city":"Asheville", "value": 293},
      {"lat":49.27829807, "long": 110.48519148, "name": "Supplier #118",  "city":"Chino Hills", "value": 293},
      {"lat":73.06296101, "long": 97.92837295, "name": "Supplier #119",  "city":"La Crosse", "value": 293},
      {"lat":51.65566143, "long": 91.41653184, "name": "Supplier #120",  "city":"Kahala", "value": 293},
      {"lat":51.92373776, "long": 115.43265672, "name": "Supplier #121",  "city":"Todt Hill", "value": 293}
    ]
  }
]
}

  
  
  